[
    {
        "serial": 1,
        "name": "Cy Ganderton",
        "phone": "Quality Control Specialist",
        "location": "Littel, Schaden and Vandervort",
        "country": "Canada",
        "time": "12/16/2020",
        "ref": "Blue"
    },
    {
        "serial": 2,
        "name": "Hart Hagerty",
        "phone": "Desktop Support Technician",
        "location": "Zemlak, Daniel and Leannon",
        "country": "United States",
        "time": "12/5/2020",
        "ref": "Purple"
    },
    {
        "serial": 3,
        "name": "Brice Swyre",
        "phone": "Tax Accountant",
        "location": "Carroll Group",
        "country": "China",
        "time": "8/15/2020",
        "ref": "Red"
    },
    {
        "serial": 4,
        "name": "Marjy Ferencz",
        "phone": "Office Assistant I",
        "location": "Rowe-Schoen",
        "country": "Russia",
        "time": "3/25/2021",
        "ref": "Crimson"
    },
    {
        "serial": 5,
        "name": "Yancy Tear",
        "phone": "Community Outreach Specialist",
        "location": "Wyman-Ledner",
        "country": "Brazil",
        "time": "5/22/2020",
        "ref": "Indigo"
    },
    {
        "serial": 6,
        "name": "Irma Vasilik",
        "phone": "Editor",
        "location": "Wiza, Bins and Emard",
        "country": "Venezuela",
        "time": "12/8/2020",
        "ref": "Purple"
    },
    {
        "serial": 7,
        "name": "Meghann Durtnal",
        "phone": "Staff Accountant IV",
        "location": "Schuster-Schimmel",
        "country": "Philippines",
        "time": "2/17/2021",
        "ref": "Yellow"
    },
    {
        "serial": 8,
        "name": "Sammy Seston",
        "phone": "Accountant I",
        "location": "Hara, Welch and Keebler",
        "country": "Indonesia",
        "time": "5/23/2020",
        "ref": "Crimson"
    },
    {
        "serial": 9,
        "name": "Lesya Tinham",
        "phone": "Safety Technician IV",
        "location": "Turner-Kuhlman",
        "country": "Philippines",
        "time": "2/21/2021",
        "ref": "Maroon"
    },
    {
        "serial": 10,
        "name": "Zaneta Tewkesbury",
        "phone": "VP Marketing",
        "location": "Sauer LLC",
        "country": "Chad",
        "time": "6/23/2020",
        "ref": "Green"
    },
    {
        "serial": 11,
        "name": "Andy Tipple",
        "phone": "Librarian",
        "location": "Hilpert Group",
        "country": "Poland",
        "time": "7/9/2020",
        "ref": "Indigo"
    },
    {
        "serial": 12,
        "name": "Sophi Biles",
        "phone": "Recruiting Manager",
        "location": "Gutmann Inc",
        "country": "Indonesia",
        "time": "2/12/2021",
        "ref": "Maroon"
    },
    {
        "serial": 13,
        "name": "Florida Garces",
        "phone": "Web Developer IV",
        "location": "Gaylord, Pacocha and Baumbach",
        "country": "Poland",
        "time": "5/31/2020",
        "ref": "Purple"
    },
    {
        "serial": 14,
        "name": "Maribeth Popping",
        "phone": "Analyst Programmer",
        "location": "Deckow-Pouros",
        "country": "Portugal",
        "time": "4/27/2021",
        "ref": "Aquamarine"
    },
    {
        "serial": 15,
        "name": "Moritz Dryburgh",
        "phone": "Dental Hygienist",
        "location": "Schiller, Cole and Hackett",
        "country": "Sri Lanka",
        "time": "8/8/2020",
        "ref": "Crimson"
    },
    {
        "serial": 16,
        "name": "Reid Semiras",
        "phone": "Teacher",
        "location": "Sporer, Sipes and Rogahn",
        "country": "Poland",
        "time": "7/30/2020",
        "ref": "Green"
    },
    {
        "serial": 17,
        "name": "Alec Lethby",
        "phone": "Teacher",
        "location": "Reichel, Glover and Hamill",
        "country": "China",
        "time": "2/28/2021",
        "ref": "Khaki"
    },
    {
        "serial": 18,
        "name": "Aland Wilber",
        "phone": "Quality Control Specialist",
        "location": "Kshlerin, Rogahn and Swaniawski",
        "country": "Czech Republic",
        "time": "9/29/2020",
        "ref": "Purple"
    },
    {
        "serial": 19,
        "name": "Teddie Duerden",
        "phone": "Staff Accountant III",
        "location": "Pouros, Ullrich and Windler",
        "country": "France",
        "time": "10/27/2020",
        "ref": "Aquamarine"
    },
    {
        "serial": 20,
        "name": "Lorelei Blackstone",
        "phone": "Data Coordinator",
        "location": "Witting, Kutch and Greenfelder",
        "country": "Kazakhstan",
        "time": "6/3/2020",
        "ref": "Red"
    }
]